[
  { "id": "M0001", "stationName": "London Paddington", "crsCode": "PAD", "tiploc": "PADTON", "latitude": 51.5154, "longitude": -0.1755, "country": "England", "county": "Greater London", "toc": "Great Western Railway", "stnarea": "GBNR", "sourceCollectionId": "stations_gbnr", "yearlyPassengers": { "2023": 22000000, "2024": 23500000 } },
  { "id": "M0002", "stationName": "London King's Cross", "crsCode": "KGX", "tiploc": "KNGX", "latitude": 51.5320, "longitude": -0.1233, "country": "England", "county": "Greater London", "toc": "London North Eastern Railway", "stnarea": "GBNR", "sourceCollectionId": "stations_gbnr", "yearlyPassengers": { "2023": 30000000, "2024": 31500000 } },
  { "id": "M0003", "stationName": "London Waterloo", "crsCode": "WAT", "tiploc": "WATRLMN", "latitude": 51.5031, "longitude": -0.1132, "country": "England", "county": "Greater London", "toc": "South Western Railway", "stnarea": "GBNR", "sourceCollectionId": "stations_gbnr", "yearlyPassengers": { "2023": 40000000, "2024": 41200000 } },
  { "id": "M0004", "stationName": "Bristol Temple Meads", "crsCode": "BRI", "tiploc": "BRSTLTM", "latitude": 51.4491, "longitude": -2.5814, "country": "England", "county": "Bristol", "toc": "Great Western Railway", "stnarea": "GBNR", "sourceCollectionId": "stations_gbnr", "yearlyPassengers": { "2023": 9800000, "2024": 10100000 } },
  { "id": "M0005", "stationName": "Manchester Piccadilly", "crsCode": "MAN", "tiploc": "MNCRPIC", "latitude": 53.4773, "longitude": -2.2309, "country": "England", "county": "Greater Manchester", "toc": "Northern", "stnarea": "GBNR", "sourceCollectionId": "stations_gbnr", "yearlyPassengers": { "2023": 27000000, "2024": 28100000 } },
  { "id": "M0006", "stationName": "Birmingham New Street", "crsCode": "BHM", "tiploc": "BHAMNWS", "latitude": 52.4778, "longitude": -1.8987, "country": "England", "county": "West Midlands", "toc": "West Midlands Railway", "stnarea": "GBNR", "sourceCollectionId": "stations_gbnr", "yearlyPassengers": { "2023": 33000000, "2024": 34000000 } },
  { "id": "M0007", "stationName": "Leeds", "crsCode": "LDS", "tiploc": "LEEDS", "latitude": 53.7955, "longitude": -1.5488, "country": "England", "county": "West Yorkshire", "toc": "Northern", "stnarea": "GBNR", "sourceCollectionId": "stations_gbnr", "yearlyPassengers": { "2023": 27500000, "2024": 28300000 } },
  { "id": "M0008", "stationName": "Liverpool Lime Street", "crsCode": "LIV", "tiploc": "LVRPLSH", "latitude": 53.4075, "longitude": -2.9776, "country": "England", "county": "Merseyside", "toc": "Merseyrail", "stnarea": "GBNR", "sourceCollectionId": "stations_gbnr", "yearlyPassengers": { "2023": 12500000, "2024": 12900000 } },
  { "id": "M0009", "stationName": "Newcastle", "crsCode": "NCL", "tiploc": "NEWCSTL", "latitude": 54.9686, "longitude": -1.6174, "country": "England", "county": "Tyne and Wear", "toc": "LNER", "stnarea": "GBNR", "sourceCollectionId": "stations_gbnr", "yearlyPassengers": { "2023": 9200000, "2024": 9500000 } },
  { "id": "M0010", "stationName": "York", "crsCode": "YRK", "tiploc": "YORK", "latitude": 53.9581, "longitude": -1.0932, "country": "England", "county": "North Yorkshire", "toc": "LNER", "stnarea": "GBNR", "sourceCollectionId": "stations_gbnr", "yearlyPassengers": { "2023": 9700000, "2024": 10000000 } },
  { "id": "M0011", "stationName": "Edinburgh Waverley", "crsCode": "EDB", "tiploc": "EDINBUR", "latitude": 55.9519, "longitude": -3.1900, "country": "Scotland", "county": "City of Edinburgh", "toc": "ScotRail", "stnarea": "GBNR", "sourceCollectionId": "stations_gbnr", "yearlyPassengers": { "2023": 22000000, "2024": 22700000 } },
  { "id": "M0012", "stationName": "Glasgow Central", "crsCode": "GLC", "tiploc": "GLGC", "latitude": 55.8590, "longitude": -4.2578, "country": "Scotland", "county": "Glasgow", "toc": "ScotRail", "stnarea": "GBNR", "sourceCollectionId": "stations_gbnr", "yearlyPassengers": { "2023": 26500000, "2024": 27200000 } },
  { "id": "M0013", "stationName": "Cardiff Central", "crsCode": "CDF", "tiploc": "CRDFCEN", "latitude": 51.4759, "longitude": -3.1791, "country": "Wales", "county": "Cardiff", "toc": "Transport for Wales", "stnarea": "GBNR", "sourceCollectionId": "stations_gbnr", "yearlyPassengers": { "2023": 13000000, "2024": 13400000 } },
  { "id": "M0014", "stationName": "Sheffield", "crsCode": "SHF", "tiploc": "SHEFFLD", "latitude": 53.3781, "longitude": -1.4620, "country": "England", "county": "South Yorkshire", "toc": "Northern", "stnarea": "GBNR", "sourceCollectionId": "stations_gbnr", "yearlyPassengers": { "2023": 8100000, "2024": 8400000 } },
  { "id": "M0015", "stationName": "Nottingham", "crsCode": "NOT", "tiploc": "NOTNGHM", "latitude": 52.9476, "longitude": -1.1459, "country": "England", "county": "Nottinghamshire", "toc": "East Midlands Railway", "stnarea": "GBNR", "sourceCollectionId": "stations_gbnr", "yearlyPassengers": { "2023": 8100000, "2024": 8300000 } },
  { "id": "M0016", "stationName": "Reading", "crsCode": "RDG", "tiploc": "READING", "latitude": 51.4586, "longitude": -0.9717, "country": "England", "county": "Berkshire", "toc": "Great Western Railway", "stnarea": "GBNR", "sourceCollectionId": "stations_gbnr", "yearlyPassengers": { "2023": 15600000, "2024": 16000000 } },
  { "id": "M0017", "stationName": "Brighton", "crsCode": "BTN", "tiploc": "BRGHTN", "latitude": 50.8290, "longitude": -0.1412, "country": "England", "county": "East Sussex", "toc": "Southern", "stnarea": "GBNR", "sourceCollectionId": "stations_gbnr", "yearlyPassengers": { "2023": 15900000, "2024": 16300000 } },
  { "id": "M0018", "stationName": "Exeter St Davids", "crsCode": "EXD", "tiploc": "EXETRSD", "latitude": 50.7302, "longitude": -3.5436, "country": "England", "county": "Devon", "toc": "Great Western Railway", "stnarea": "GBNR", "sourceCollectionId": "stations_gbnr", "yearlyPassengers": { "2023": 4200000, "2024": 4400000 } },
  { "id": "M0019", "stationName": "Norwich", "crsCode": "NRW", "tiploc": "NRCH", "latitude": 52.6279, "longitude": 1.3078, "country": "England", "county": "Norfolk", "toc": "Greater Anglia", "stnarea": "GBNR", "sourceCollectionId": "stations_gbnr", "yearlyPassengers": { "2023": 5100000, "2024": 5300000 } },
  { "id": "M0020", "stationName": "Cambridge", "crsCode": "CBG", "tiploc": "CAMBDGE", "latitude": 52.1943, "longitude": 0.1372, "country": "England", "county": "Cambridgeshire", "toc": "Greater Anglia", "stnarea": "GBNR", "sourceCollectionId": "stations_gbnr", "yearlyPassengers": { "2023": 9600000, "2024": 9900000 } },

  { "id": "M0021", "stationName": "Belfast Grand Central", "crsCode": "BFG", "tiploc": "BELFGCS", "latitude": 54.5952, "longitude": -5.9407, "country": "Northern Ireland", "county": "Antrim", "toc": "NI Railways", "stnarea": "NITRANSLINK", "sourceCollectionId": "stations_nitranslink", "yearlyPassengers": { "2023": 2600000, "2024": 2750000 } },
  { "id": "M0022", "stationName": "Derry~Londonderry", "crsCode": "LDY", "tiploc": "LDYDERY", "latitude": 55.0027, "longitude": -7.3238, "country": "Northern Ireland", "county": "Londonderry", "toc": "NI Railways", "stnarea": "NITRANSLINK", "sourceCollectionId": "stations_nitranslink", "yearlyPassengers": { "2023": 420000, "2024": 440000 } },
  { "id": "M0023", "stationName": "Bangor (NI)", "crsCode": "BNG", "tiploc": "BANGORN", "latitude": 54.6604, "longitude": -5.6698, "country": "Northern Ireland", "county": "Down", "toc": "NI Railways", "stnarea": "NITRANSLINK", "sourceCollectionId": "stations_nitranslink", "yearlyPassengers": { "2023": 780000, "2024": 810000 } },
  { "id": "M0024", "stationName": "Portadown", "crsCode": "PTD", "tiploc": "PORTADN", "latitude": 54.4256, "longitude": -6.4453, "country": "Northern Ireland", "county": "Armagh", "toc": "NI Railways", "stnarea": "NITRANSLINK", "sourceCollectionId": "stations_nitranslink", "yearlyPassengers": { "2023": 610000, "2024": 630000 } },
  { "id": "M0025", "stationName": "Larne Harbour", "crsCode": "LHA", "tiploc": "LARNEHR", "latitude": 54.8534, "longitude": -5.7972, "country": "Northern Ireland", "county": "Antrim", "toc": "NI Railways", "stnarea": "NITRANSLINK", "sourceCollectionId": "stations_nitranslink", "yearlyPassengers": { "2023": 210000, "2024": 220000 } },

  { "id": "M0026", "stationName": "Dublin Connolly", "crsCode": "IDCN", "tiploc": "DUBCONN", "latitude": 53.3552, "longitude": -6.2495, "country": "Ireland", "county": "Dublin", "toc": "Iarnród Éireann", "stnarea": "ROIIRERAIL", "sourceCollectionId": "stations_roiirerail", "yearlyPassengers": { "2023": 12300000, "2024": 12700000 } },
  { "id": "M0027", "stationName": "Dublin Heuston", "crsCode": "IDHN", "tiploc": "DUBHEUS", "latitude": 53.3467, "longitude": -6.2944, "country": "Ireland", "county": "Dublin", "toc": "Iarnród Éireann", "stnarea": "ROIIRERAIL", "sourceCollectionId": "stations_roiirerail", "yearlyPassengers": { "2023": 10100000, "2024": 10400000 } },
  { "id": "M0028", "stationName": "Cork Kent", "crsCode": "IKCK", "tiploc": "CORKKNT", "latitude": 51.9034, "longitude": -8.4599, "country": "Ireland", "county": "Cork", "toc": "Iarnród Éireann", "stnarea": "ROIIRERAIL", "sourceCollectionId": "stations_roiirerail", "yearlyPassengers": { "2023": 2400000, "2024": 2500000 } },
  { "id": "M0029", "stationName": "Galway", "crsCode": "IGWY", "tiploc": "GALWAY", "latitude": 53.2735, "longitude": -9.0489, "country": "Ireland", "county": "Galway", "toc": "Iarnród Éireann", "stnarea": "ROIIRERAIL", "sourceCollectionId": "stations_roiirerail", "yearlyPassengers": { "2023": 1200000, "2024": 1250000 } },
  { "id": "M0030", "stationName": "Limerick", "crsCode": "ILMK", "tiploc": "LIMERIC", "latitude": 52.6614, "longitude": -8.6231, "country": "Ireland", "county": "Limerick", "toc": "Iarnród Éireann", "stnarea": "ROIIRERAIL", "sourceCollectionId": "stations_roiirerail", "yearlyPassengers": { "2023": 980000, "2024": 1020000 } },

  { "id": "M0031", "stationName": "Keighley", "crsCode": "KEI", "tiploc": "KEIGHLY", "latitude": 53.8664, "longitude": -1.9091, "country": "England", "county": "West Yorkshire", "toc": "Keighley & Worth Valley Railway", "stnarea": "GBHERITAGE", "sourceCollectionId": "stations_gbheritage", "yearlyPassengers": { "2023": 95000, "2024": 98000 } },
  { "id": "M0032", "stationName": "Haworth", "crsCode": "HAW", "tiploc": "HAWORTH", "latitude": 53.8296, "longitude": -1.9556, "country": "England", "county": "West Yorkshire", "toc": "Keighley & Worth Valley Railway", "stnarea": "GBHERITAGE", "sourceCollectionId": "stations_gbheritage", "yearlyPassengers": { "2023": 88000, "2024": 91000 } },
  { "id": "M0033", "stationName": "Sheringham", "crsCode": "SHM", "tiploc": "SHRNGHM", "latitude": 52.9445, "longitude": 1.2113, "country": "England", "county": "Norfolk", "toc": "North Norfolk Railway", "stnarea": "GBHERITAGE", "sourceCollectionId": "stations_gbheritage", "yearlyPassengers": { "2023": 120000, "2024": 124000 } },
  { "id": "M0034", "stationName": "Paignton", "crsCode": "PGN", "tiploc": "PAIGNTN", "latitude": 50.4325, "longitude": -3.5658, "country": "England", "county": "Devon", "toc": "Dartmouth Steam Railway", "stnarea": "GBHERITAGE", "sourceCollectionId": "stations_gbheritage", "yearlyPassengers": { "2023": 150000, "2024": 155000 } },
  { "id": "M0035", "stationName": "Llangollen", "crsCode": "LLG", "tiploc": "LLANGLN", "latitude": 52.9694, "longitude": -3.1650, "country": "Wales", "county": "Denbighshire", "toc": "Llangollen Railway", "stnarea": "GBHERITAGE", "sourceCollectionId": "stations_gbheritage", "yearlyPassengers": { "2023": 105000, "2024": 108000 } },

  { "id": "M0036", "stationName": "Sheffield Cathedral", "crsCode": "SYSC1", "tiploc": "SUPTCTH", "latitude": 53.3822, "longitude": -1.4694, "country": "England", "county": "South Yorkshire", "toc": "Stagecoach Supertram", "stnarea": "GBSHEFFSUPERTRAM", "sourceCollectionId": "lightrail_GBSHEFFSUPERTRAM", "linesServed": "Blue, Yellow", "dateOpened": "1994-03-21", "yearlyPassengers": null },
  { "id": "M0037", "stationName": "Meadowhall Interchange", "crsCode": "SYSC2", "tiploc": "SUPTMDH", "latitude": 53.4141, "longitude": -1.4108, "country": "England", "county": "South Yorkshire", "toc": "Stagecoach Supertram", "stnarea": "GBSHEFFSUPERTRAM", "sourceCollectionId": "lightrail_GBSHEFFSUPERTRAM", "linesServed": "Yellow", "dateOpened": "1990-03-23", "yearlyPassengers": null },
  { "id": "M0038", "stationName": "Halfway", "crsCode": "SYSC3", "tiploc": "SUPTHLF", "latitude": 53.3489, "longitude": -1.4098, "country": "England", "county": "South Yorkshire", "toc": "Stagecoach Supertram", "stnarea": "GBSHEFFSUPERTRAM", "sourceCollectionId": "lightrail_GBSHEFFSUPERTRAM", "linesServed": "Blue", "dateOpened": "1994-10-02", "yearlyPassengers": null },
  { "id": "M0039", "stationName": "Middlewood", "crsCode": "SYSC4", "tiploc": "SUPTMDW", "latitude": 53.4025, "longitude": -1.5145, "country": "England", "county": "South Yorkshire", "toc": "Stagecoach Supertram", "stnarea": "GBSHEFFSUPERTRAM", "sourceCollectionId": "lightrail_GBSHEFFSUPERTRAM", "linesServed": "Purple", "dateOpened": "1995-10-01", "yearlyPassengers": null },
  { "id": "M0040", "stationName": "Herdings Park", "crsCode": "SYSC5", "tiploc": "SUPTHDP", "latitude": 53.3617, "longitude": -1.4459, "country": "England", "county": "South Yorkshire", "toc": "Stagecoach Supertram", "stnarea": "GBSHEFFSUPERTRAM", "sourceCollectionId": "lightrail_GBSHEFFSUPERTRAM", "linesServed": "Yellow", "dateOpened": "1994-03-21", "yearlyPassengers": null }
]
